,city,cloudiness,country,date,humidity,lat,lng,max_temp,wind_speed
0,Atuona,0,PF,1584327400,65,-9.8,-139.03,82.2,8.75
1,Castro,13,BR,1584326936,86,-24.79,-50.01,65.79,3.42
2,Yellowknife,20,CA,1584327250,66,62.46,-114.35,10.4,18.34
3,La Ciotat,0,FR,1584327401,57,43.17,5.6,55.4,10.29
4,Rikitea,3,PF,1584327401,79,-23.12,-134.97,79.63,12.71
5,Shillong,20,IN,1584327401,83,25.57,91.88,75.2,3.04
6,Katsuura,75,JP,1584327045,40,35.13,140.3,57.0,16.11
7,Kumul,0,CN,1584327401,18,42.8,93.45,47.59,3.09
8,Gobabis,0,NA,1584327107,88,-22.45,18.97,69.8,3.06
9,Avarua,100,CK,1584327011,79,-21.21,-159.78,84.2,6.93
10,Olafsvik,100,IS,1584327401,91,64.89,-23.71,32.27,23.6
11,Livingstonia,100,MW,1584327401,88,-10.61,34.11,59.4,3.94
12,Hithadhoo,100,MV,1584326972,62,-0.6,73.08,83.16,5.84
13,Khorinsk,56,RU,1584327401,67,52.17,109.77,32.13,14.25
14,Ushuaia,40,AR,1584326844,71,-54.8,-68.3,53.6,5.82
15,Saint-Philippe,93,RE,1584326835,60,-21.36,55.77,75.2,9.17
16,Cherskiy,94,RU,1584326706,85,68.75,161.3,8.53,6.58
17,Sobolevo,0,RU,1584327401,69,54.43,31.9,26.82,7.07
18,Sretensk,100,RU,1584327401,88,52.25,117.71,29.95,4.05
19,Santa Fe,100,AR,1584327401,82,-31.63,-60.7,70.0,6.2
20,Dikson,100,RU,1584327032,100,73.51,80.55,-14.04,8.28
21,Zorritos,75,PE,1584327401,33,-3.68,-80.68,89.6,3.36
22,Sioux Lookout,90,CA,1584326918,85,50.1,-91.92,26.6,5.82
23,Pacifica,90,US,1584327301,70,37.61,-122.49,51.8,3.36
24,Sur,12,OM,1584327402,70,22.57,59.53,67.82,9.22
25,Hobart,20,AU,1584327402,52,-42.88,147.33,72.0,10.29
26,Barrow,90,US,1584326651,85,71.29,-156.79,12.2,13.87
27,Hilo,90,US,1584327171,74,19.73,-155.09,78.8,13.87
28,Port Alfred,100,ZA,1584327015,98,-33.59,26.89,62.01,1.99
29,Punta Arenas,75,CL,1584327402,87,-53.15,-70.92,55.4,16.11
30,Nantucket,1,US,1584327005,74,41.28,-70.1,30.99,3.36
31,Chui,99,UY,1584327043,74,-33.7,-53.46,61.84,4.61
32,Bluff,67,NZ,1584327402,69,-46.6,168.33,55.0,15.99
33,Yatou,17,CN,1584327402,46,37.15,122.38,38.68,11.05
34,Andapa,100,MG,1584327402,96,-14.65,49.65,66.0,2.37
35,Mayumba,91,GA,1584327102,81,-3.43,10.66,82.26,5.35
36,Shingū,40,JP,1584327402,61,33.73,135.98,46.4,21.92
37,Loandjili,75,CG,1584327402,94,-4.76,11.86,80.6,2.24
38,Saint Paul Harbor,75,US,1584326597,64,57.79,-152.41,39.2,6.93
39,Torbay,40,CA,1584327017,73,47.67,-52.73,26.01,8.05
40,Ryōtsu-minato,75,JP,1584327402,64,38.08,138.43,41.0,8.05
41,Linxia Chengguanzhen,100,CN,1584327403,60,35.6,103.21,31.32,2.71
42,Mount Gambier,0,AU,1584327059,43,-37.83,140.77,69.8,5.82
43,Busselton,91,AU,1584327403,39,-33.65,115.33,77.0,7.52
44,Saint-François,33,FR,1584327403,82,46.42,3.91,39.2,2.24
45,Karratha,0,AU,1584327071,70,-20.74,116.85,86.41,8.21
46,Carnarvon,40,AU,1584326807,61,-24.87,113.63,82.4,12.75
47,Clyde River,20,CA,1584326895,67,70.47,-68.59,-22.0,17.22
48,Jamestown,1,US,1584326991,50,42.1,-79.24,30.2,8.05
49,Upernavik,0,GL,1584327065,78,72.79,-56.15,-22.16,6.15
50,Tasiilaq,100,GL,1584326994,46,65.61,-37.64,8.6,17.22
51,Newport,0,GB,1584327303,93,51.59,-3.0,41.0,6.93
52,Tuy Hoa,0,VN,1584327403,79,13.08,109.3,78.62,5.21
53,Vostok,28,RU,1584326929,76,46.49,135.88,19.0,11.72
54,Lebedinyy,100,RU,1584327403,92,58.52,125.52,23.25,6.44
55,Tilichiki,100,RU,1584327051,96,60.47,166.1,28.92,23.58
56,Hermanus,50,ZA,1584326902,77,-34.42,19.23,64.63,32.01
57,Puerto Ayora,20,EC,1584327403,83,-0.74,-90.35,78.8,6.93
58,Leningradskiy,0,RU,1584327067,73,69.38,178.42,13.6,4.23
59,Vila Velha,20,BR,1584326974,88,-20.33,-40.29,77.0,1.12
60,Hasaki,40,JP,1584326842,59,35.73,140.83,57.0,10.29
61,Araranguá,100,BR,1584327403,90,-28.93,-49.49,73.4,7.45
62,Qobustan,75,AZ,1584327403,93,40.08,49.41,44.6,13.87
63,Lüderitz,0,NA,1584327011,82,-26.65,15.16,62.6,12.75
64,Khatanga,19,RU,1584326940,93,71.97,102.5,-25.28,11.5
65,Vila Franca do Campo,20,PT,1584327032,81,37.72,-25.43,50.0,3.36
66,Jiazi,15,CN,1584327404,49,22.88,116.07,71.33,13.22
67,Coquimbo,90,CL,1584327024,87,-29.95,-71.34,60.8,2.24
68,Butaritari,88,KI,1584326846,78,3.07,172.79,84.04,13.04
69,Okakarara,40,NA,1584327404,73,-20.58,17.43,67.68,2.84
70,Norman Wells,20,CA,1584327005,72,65.28,-126.83,14.0,14.99
71,George Town,20,MY,1584326853,70,5.41,100.34,87.8,4.7
72,Beringovskiy,77,RU,1584326994,85,63.05,179.32,29.1,6.78
73,Portland,75,US,1584327271,41,45.52,-122.68,43.0,19.46
74,Mataura,97,NZ,1584327404,69,-46.19,168.86,55.0,15.99
75,Mar del Plata,40,AR,1584327046,87,-38.0,-57.56,60.01,6.78
76,Kisi,0,NG,1584327404,62,9.08,3.85,72.59,3.62
77,Mossamedes,100,AO,1584326990,78,-15.2,12.15,75.52,5.86
78,Guerrero Negro,0,MX,1584327404,72,27.98,-114.06,60.51,15.5
79,São Filipe,14,CV,1584326918,72,14.9,-24.5,70.61,20.02
80,Albany,1,US,1584327302,50,42.6,-73.97,30.99,11.41
81,Ribeira Grande,4,PT,1584327016,79,38.52,-28.7,56.34,9.33
82,Ucluelet,0,CA,1584326846,70,48.93,-125.55,42.01,2.13
83,Lincoln,90,US,1584327327,87,40.8,-96.67,34.0,3.36
84,Kaitangata,100,NZ,1584326893,76,-46.28,169.85,55.0,1.99
85,Yulara,0,AU,1584327042,9,-25.24,130.99,87.8,8.05
86,Rodrigues Alves,90,BR,1584327405,100,-7.74,-72.65,75.2,4.7
87,Umeå,32,SE,1584327405,59,63.83,20.26,35.6,24.16
88,Magugu,100,TZ,1584327405,93,-4.02,35.77,65.88,0.56
89,Nanortalik,19,GL,1584327030,65,60.14,-45.24,18.41,24.92
90,Ushumun,100,RU,1584327405,89,52.78,126.53,21.27,0.67
91,Kinango,100,KE,1584327405,92,-4.14,39.32,77.04,2.21
92,Qaanaaq,100,GL,1584327056,51,77.48,-69.36,-2.33,6.87
93,Along,100,IN,1584327016,78,28.17,94.77,65.64,2.01
94,Sterling,1,US,1584327198,100,39.01,-77.43,43.0,3.36
95,Springbok,0,ZA,1584327405,61,-29.66,17.89,61.23,12.26
96,Makīnsk,24,KZ,1584327061,88,52.63,70.42,26.56,4.32
97,Vanimo,100,PG,1584327028,89,-2.67,141.3,76.68,6.42
98,Lebu,0,CL,1584326923,76,-37.62,-73.65,56.28,8.46
99,Gallup,1,US,1584327134,34,35.53,-108.74,48.2,6.93
100,Cape Town,20,ZA,1584326706,68,-33.93,18.42,64.99,13.87
101,Kapaa,75,US,1584326989,78,22.08,-159.32,78.8,8.05
102,Codrington,0,AU,1584326947,76,-38.27,141.97,60.51,13.85
103,Souillac,40,MU,1584327018,88,-20.52,57.52,75.2,2.24
104,Huarmey,100,PE,1584327405,69,-10.07,-78.15,73.71,2.3
105,Kankakee,1,US,1584327406,78,41.15,-87.87,35.01,5.82
106,Cabo San Lucas,75,MX,1584326825,72,22.89,-109.91,70.0,3.36
107,Iqaluit,90,CA,1584326936,70,63.75,-68.51,-0.4,4.7
108,Sitka,1,US,1584327002,70,57.05,-135.33,42.8,12.75
109,Jardim,31,BR,1584327406,71,-21.48,-56.14,76.1,3.56
110,East London,97,ZA,1584327024,71,-33.02,27.91,69.26,11.86
111,Tuktoyaktuk,20,CA,1584327000,76,69.45,-133.04,-7.6,5.82
112,Pevek,0,RU,1584326997,82,69.7,170.31,7.54,12.26
113,Aklavik,75,CA,1584327002,65,68.22,-135.01,3.2,2.24
114,Mukhtolovo,94,RU,1584327406,83,55.46,43.2,23.77,8.88
115,Gushikawa,0,JP,1584327406,40,26.35,127.87,69.8,17.22
116,Berlevåg,100,NO,1584327253,64,70.86,29.09,29.03,11.18
117,Puerto Peñasco,0,MX,1584327406,81,31.32,-113.53,63.0,5.97
118,Esna,0,EG,1584327406,72,25.29,32.55,60.8,2.91
119,Vaini,90,TO,1584326780,89,-21.2,-175.2,84.2,12.75
120,Noril'sk,75,RU,1584327406,83,69.35,88.2,-13.0,11.18
121,Paamiut,0,GL,1584327019,59,61.99,-49.67,-4.2,15.32
122,Lodja,100,CD,1584327406,99,-3.48,23.43,69.58,0.83
123,Stranda,1,NO,1584327406,64,62.31,6.94,35.6,14.99
124,Umluj,0,SA,1584327406,37,25.02,37.27,68.52,9.75
125,Arraial do Cabo,0,BR,1584327025,83,-22.97,-42.03,77.9,26.57
126,Saskylakh,100,RU,1584327035,95,71.92,114.08,-12.32,20.71
127,Hong Kong,20,HK,1584326830,64,22.29,114.16,75.0,19.46
128,Spornoye,4,RU,1584327407,79,50.84,37.29,21.2,8.95
129,Yar-Sale,0,RU,1584327407,95,66.83,70.83,-10.44,4.43
130,Faanui,8,PF,1584326831,71,-16.48,-151.75,83.32,10.18
131,Alofi,100,NU,1584327407,79,-19.06,-169.92,86.0,8.05
132,Xingtai,100,CN,1584327407,31,37.06,114.49,57.61,2.93
133,Vao,10,NC,1584327407,72,-22.67,167.48,81.21,28.14
134,Capim Grosso,100,BR,1584327304,87,-11.38,-40.01,72.12,7.38
135,Cabadiangan,72,PH,1584327407,56,9.75,122.47,85.15,5.75
136,Calvinia,0,ZA,1584327044,71,-31.47,19.78,57.9,17.94
137,Praia,20,CV,1584326906,77,14.92,-23.51,69.8,19.46
138,Airai,97,TL,1584327004,58,-8.93,125.41,80.28,5.86
139,Bethel,5,US,1584326859,29,41.37,-73.41,44.01,10.29
140,Bambous Virieux,40,MU,1584327407,88,-20.34,57.76,75.2,2.24
141,Saint-Pierre,13,RE,1584327109,60,-21.34,55.48,75.2,9.17
142,Muroto-misakicho,75,JP,1584327407,49,33.28,134.15,48.2,11.41
143,Yunyang,100,CN,1584327407,25,33.45,112.71,64.56,5.08
144,Bubanza Province,2,BI,1584327408,93,-3.12,29.4,57.61,1.12
145,Bengkulu,74,ID,1584327408,58,-3.8,102.27,88.81,1.43
146,Goundi,0,TD,1584327408,13,9.36,17.37,71.78,3.76
147,San Patricio,40,MX,1584326781,78,19.22,-104.7,80.6,5.82
148,Vrbové,0,SK,1584327408,37,48.62,17.72,37.0,16.11
149,Port Elizabeth,90,ZA,1584326544,93,-33.92,25.57,62.6,6.93
150,Puyang,0,CN,1584327145,55,29.46,119.89,61.92,3.62
151,Pangnirtung,100,CA,1584327408,91,66.15,-65.71,-19.59,7.7
152,Marrakesh,40,MA,1584327408,76,31.63,-8.01,57.2,8.05
153,Narsaq,100,GL,1584327051,48,60.92,-46.05,21.2,3.36
154,Two Hills,66,CA,1584327408,92,53.72,-111.75,1.89,8.77
155,Bredasdorp,76,ZA,1584326850,88,-34.53,20.04,62.6,12.75
156,Cotonou,7,BJ,1584327408,84,6.37,2.42,81.63,6.8
157,Kabare,4,CD,1584327408,94,-2.47,28.82,58.82,0.85
158,La Palma,90,US,1584326702,62,33.85,-118.05,61.0,6.93
159,Cocobeach,40,GA,1584327408,94,1.0,9.58,80.6,2.24
160,Dodoma,100,TZ,1584327408,92,-6.17,35.74,67.12,1.5
161,New Norfolk,20,AU,1584327408,52,-42.78,147.06,72.0,10.29
162,Bakchar,100,RU,1584327144,87,57.02,82.07,33.03,18.95
163,Antalaha,100,MG,1584327409,76,-14.9,50.28,80.85,14.65
164,Doha,15,QA,1584327409,73,25.29,51.53,72.0,4.12
165,Koygorodok,0,RU,1584327409,96,60.45,51.0,6.87,3.85
166,Acapulco de Juárez,20,MX,1584327409,78,16.86,-99.89,82.4,9.17
167,Kieta,100,PG,1584327121,72,-6.22,155.63,83.5,6.33
168,Chokurdakh,0,RU,1584326938,87,70.63,147.92,-9.85,5.7
169,Itupiranga,75,BR,1584327244,100,-5.13,-49.33,73.4,4.7
170,Faya,16,SA,1584327085,87,18.39,42.45,55.4,3.53
171,Jieshi,15,CN,1584327409,42,22.81,115.83,71.01,13.22
172,Fuyang,100,CN,1584327409,56,32.9,115.82,60.39,9.44
173,Winnemucca,90,US,1584327409,70,40.97,-117.74,42.8,10.29
174,Kuching,40,MY,1584327409,100,1.55,110.33,78.01,4.7
175,Kahului,90,US,1584327089,82,20.89,-156.47,80.6,6.93
176,Port Lincoln,57,AU,1584327057,41,-34.73,135.87,74.35,16.67
177,Hokitika,0,NZ,1584327409,74,-42.72,170.97,61.57,14.85
178,Lensk,100,RU,1584327048,89,60.73,114.93,30.42,12.08
179,Grindavik,90,IS,1584327409,93,63.84,-22.43,35.6,34.45
180,Tomatlán,56,MX,1584326764,92,19.93,-105.25,69.26,1.72
181,Fortuna,20,US,1584327409,80,40.6,-124.16,44.6,12.75
182,Przasnysz,83,PL,1584327409,42,53.02,20.88,32.0,8.05
183,Klaksvík,100,FO,1584327022,69,62.23,-6.59,33.8,18.34
184,Tuatapere,78,NZ,1584327066,69,-46.13,167.68,55.0,15.99
185,Bac Lieu,0,VN,1584327104,44,9.29,105.72,92.1,19.82
186,Lima,75,PE,1584327030,83,-12.04,-77.03,75.2,14.99
187,Chaozhou,29,CN,1584327410,48,23.67,116.64,66.2,6.71
188,Opuwo,100,NA,1584327410,43,-18.06,13.84,67.68,4.83
189,Nikolskoye,90,RU,1584326867,64,59.7,30.79,33.8,11.18
190,Tiarei,40,PF,1584327410,62,-17.53,-149.33,87.8,11.41
191,Kuytun,100,RU,1584326874,98,54.34,101.5,30.47,6.08
192,Camaná,100,PE,1584327410,91,-16.62,-72.71,65.88,4.21
193,Luanda,75,AO,1584327410,83,-8.84,13.23,80.6,3.36
194,Lagoa Vermelha,9,BR,1584327410,90,-28.21,-51.53,66.07,8.97
195,Puerto El Triunfo,20,SV,1584327410,69,13.28,-88.55,80.6,5.82
196,Cidreira,100,BR,1584327008,91,-30.18,-50.21,74.34,14.25
197,Sorgun,100,TR,1584327129,92,39.81,35.19,28.74,15.1
198,College,90,US,1584327410,86,64.86,-147.8,30.99,10.29
199,Arrecife,22,ES,1584327410,72,28.96,-13.55,64.4,11.41
200,Wewak,100,PG,1584327017,89,-3.55,143.63,75.7,7.11
201,Nānākuli,75,US,1584327053,78,21.39,-158.15,78.8,9.17
202,Yangi Marg`ilon,100,UZ,1584327411,57,40.43,71.72,51.8,6.93
203,Adrar,0,MR,1584327046,20,20.5,-10.07,67.33,12.62
204,Promyshlennyy,100,RU,1584327411,88,67.58,63.92,1.54,15.05
205,Dingle,0,PH,1584327064,56,11.0,122.67,84.79,11.03
206,Borogontsy,90,RU,1584327411,92,62.67,131.17,3.25,7.14
207,Isangel,90,VU,1584327094,84,-19.55,169.27,86.0,23.04
208,Port-Gentil,100,GA,1584327063,79,-0.72,8.78,82.35,7.99
209,Planos,75,GR,1584327411,62,37.82,20.85,53.6,11.41
210,Te Anau,98,NZ,1584327411,72,-45.42,167.72,49.69,9.01
211,Lanzhou,100,CN,1584327219,47,36.06,103.79,37.4,2.24
212,Atar,0,MR,1584327031,26,20.52,-13.05,63.57,7.65
213,Beloha,51,MG,1584327411,97,-25.17,45.05,70.34,8.3
214,Wanaka,63,NZ,1584327411,58,-44.7,169.15,53.44,6.69
215,Danielskuil,40,ZA,1584327411,48,-28.19,23.54,65.32,7.25
216,Asău,0,RO,1584327052,67,46.43,26.4,21.2,1.12
217,Comodoro Rivadavia,81,AR,1584326829,67,-45.87,-67.5,62.6,1.12
218,Wanlaweyn,100,SO,1584327411,87,2.62,44.89,77.18,6.53
219,Araouane,0,ML,1584327411,8,18.9,-3.53,76.08,11.41
220,Kulhudhuffushi,79,MV,1584327411,74,6.62,73.07,82.99,5.57
221,Samarai,2,PG,1584326889,51,-10.62,150.67,90.34,3.89
222,Necochea,0,AR,1584326841,86,-38.55,-58.74,48.99,4.0
223,Uthal,83,PK,1584327411,18,25.81,66.62,75.72,2.53
224,Ilulissat,93,GL,1584326863,43,69.22,-51.1,-7.6,10.29
225,Vágur,98,FO,1584327080,70,61.47,-6.81,38.41,22.24
226,Santo Ângelo,100,BR,1584327412,88,-28.3,-54.26,75.99,8.05
227,Chhor,100,PK,1584327412,26,25.52,69.77,73.42,12.41
228,Zhangjiakou,0,CN,1584327412,22,40.81,114.88,44.02,17.72
229,Geraldton,75,AU,1584327073,57,-28.77,114.6,78.8,8.05
230,Paragominas,100,BR,1584327412,99,-2.97,-47.48,70.75,3.4
231,Monrovia,83,LR,1584327412,88,6.3,-10.8,80.24,5.3
232,Matagami,1,CA,1584327398,83,49.75,-77.63,-9.4,3.51
233,Cabedelo,75,BR,1584327412,94,-6.98,-34.83,77.0,1.12
234,Rabo de Peixe,20,PT,1584327412,81,37.8,-25.58,50.0,3.36
235,Gao,64,ML,1584327412,12,16.64,1.64,77.45,11.95
236,Pisco,99,PE,1584326945,83,-13.7,-76.22,73.4,8.05
237,Jhalidā,75,IN,1584327412,93,23.37,85.97,71.6,2.24
238,Fukuechō,40,JP,1584327412,49,32.69,128.84,50.0,11.41
239,Talnakh,75,RU,1584327025,76,69.49,88.4,-11.2,11.18
240,Shelburne,1,CA,1584327051,67,44.08,-80.2,30.0,4.5
241,Olinda,75,BR,1584327412,94,-8.01,-34.86,75.2,5.82
242,Flinders,75,AU,1584327014,88,-34.58,150.86,69.01,16.11
243,Nadym,0,RU,1584327413,87,65.53,72.52,-8.05,6.82
244,Solnechnyy,65,RU,1584327413,88,50.72,136.63,16.5,5.48
245,Saldanha,99,ZA,1584327065,63,-33.01,17.94,64.4,6.93
246,Dunedin,88,NZ,1584327413,82,-45.87,170.5,54.0,3.0
247,Natal,75,BR,1584327413,94,-5.79,-35.21,77.0,3.36
248,Río Gallegos,100,AR,1584327158,58,-51.62,-69.22,62.96,16.04
249,Tsuyama,75,JP,1584327413,93,35.05,134.0,48.0,6.93
250,Deputatsky,0,RU,1584327413,81,69.3,139.9,-16.01,3.56
251,Slave Lake,1,CA,1584327153,60,55.28,-114.77,10.4,8.05
252,Atyrau,100,KZ,1584327413,51,47.12,51.88,35.6,15.66
253,Hyères,0,FR,1584327413,81,43.12,6.12,55.4,3.36
254,Bandarbeyla,100,SO,1584327000,71,9.49,50.81,79.02,6.4
255,Santiago de Cao,40,PE,1584327413,83,-7.96,-79.24,73.4,8.05
256,Erenhot,28,CN,1584327413,37,43.65,111.98,42.57,20.67
257,Sechura,99,PE,1584326981,77,-5.56,-80.82,76.78,7.58
258,Rincon,75,US,1584327082,82,32.3,-81.24,66.2,13.87
259,Khonsa,100,IN,1584327413,88,27.02,95.57,65.19,1.83
260,Itaituba,100,BR,1584327295,98,-4.28,-55.98,69.91,1.61
261,Chapais,1,CA,1584327249,83,49.78,-74.85,-13.0,0.89
262,Qaqortoq,22,GL,1584327115,48,60.72,-46.03,21.2,3.36
263,Mahébourg,40,MU,1584326712,88,-20.41,57.7,75.2,2.24
264,Roald,90,NO,1584327413,64,62.58,6.13,35.6,14.99
265,Grootfontein,100,NA,1584327414,74,-19.57,18.12,69.89,1.61
266,Basco,7,PH,1584327414,71,20.45,121.97,70.25,24.58
267,Dubai,0,AE,1584327320,46,25.26,55.3,73.4,5.82
268,Saryg-Sep,100,RU,1584327414,83,51.5,95.6,27.73,1.52
269,Xai-Xai,58,MZ,1584327414,90,-25.05,33.64,73.51,5.1
270,Provideniya,90,RU,1584327070,92,64.38,-173.3,23.0,8.95
271,Marawi,32,PH,1584327414,77,8.0,124.29,81.0,5.01
272,Saint-Louis,0,SN,1584327414,29,16.33,-15.0,69.12,11.41
273,Straumen,75,NO,1584327414,83,63.87,11.3,34.0,19.46
274,Saint George,1,US,1584327050,62,37.1,-113.58,57.99,8.05
275,Peniche,40,PT,1584327414,81,39.36,-9.38,52.0,3.36
276,Mackay,27,AU,1584327414,65,-21.15,149.2,84.99,19.46
277,Longyearbyen,90,SJ,1584327001,84,78.22,15.64,-0.4,5.82
278,Jumla,0,NP,1584327414,27,29.27,82.18,38.73,4.21
279,Foumbot,85,CM,1584327414,70,5.51,10.64,62.58,3.15
280,Río Bueno,0,CL,1584327414,97,-40.32,-72.97,50.0,3.58
281,Tura,40,IN,1584327414,41,25.52,90.22,80.4,3.2
282,Kruisfontein,100,ZA,1584326569,88,-34.0,24.73,60.33,10.02
283,Bilma,60,NE,1584327006,14,18.69,12.92,60.15,1.81
284,Lagoa,0,PT,1584327058,75,39.05,-27.98,60.76,14.0
285,Hede,87,CN,1584327415,62,33.77,120.25,44.1,11.25
286,Sørland,62,NO,1584327037,54,67.67,12.69,31.55,20.31
287,Nordfjordeid,40,NO,1584327415,55,61.91,5.99,37.99,3.36
288,Tiksi,100,RU,1584326985,81,71.69,128.87,9.09,20.58
289,Tainan City,40,TW,1584327263,53,22.99,120.21,77.0,3.36
290,Batagay,89,RU,1584327415,79,67.63,134.63,-5.44,4.92
291,Kyra,27,RU,1584327415,58,49.58,111.98,33.37,23.29
292,Neuquén,0,AR,1584327327,30,-38.95,-68.06,71.6,5.82
293,Fairbanks,90,US,1584327019,86,64.84,-147.72,30.99,10.29
294,Timberlake,90,US,1584327286,75,37.32,-79.26,45.0,5.82
295,Safaga,0,EG,1584327416,48,26.73,33.94,64.4,9.17
296,Sergeevka,25,KZ,1584327286,92,53.88,67.42,28.58,4.85
297,Thompson,90,CA,1584327032,85,55.74,-97.86,15.8,10.29
298,Senanga,100,ZM,1584327056,95,-16.12,23.27,66.0,6.08
299,Heraclea,100,TR,1584327416,83,37.51,34.05,46.92,1.77
300,Il’inskiy,0,RU,1584327416,85,55.62,38.12,25.0,6.71
301,Gimli,100,CA,1584327244,97,50.63,-96.99,25.0,8.01
302,Barstow,1,US,1584327417,38,34.9,-117.02,60.8,18.34
303,São José da Coroa Grande,46,BR,1584327417,74,-8.9,-35.15,82.15,5.64
304,Anadyr,100,RU,1584327413,85,64.75,177.48,23.0,4.47
305,Puqi,65,CN,1584327116,46,29.72,113.88,66.04,1.88
306,Niamey,99,NE,1584327134,10,13.51,2.11,80.6,6.93
307,Ulaangom,100,MN,1584327117,86,49.98,92.07,11.19,3.09
308,Gudāri,36,IN,1584327417,63,19.35,83.78,79.47,2.35
309,Parkes,60,AU,1584327417,41,-33.13,148.18,78.01,5.99
310,Arlit,100,NE,1584327074,12,18.74,7.39,71.87,8.5
311,Pitimbu,75,BR,1584327417,94,-7.47,-34.81,77.0,1.12
312,Muscat,40,OM,1584327417,88,23.61,58.59,68.0,3.36
313,Inuvik,75,CA,1584327076,65,68.35,-133.72,3.2,2.24
314,Road Town,40,VG,1584327417,69,18.42,-64.62,75.99,10.29
315,Margate,18,GB,1584327117,93,51.38,1.39,46.0,5.82
316,Leh,0,IN,1584327417,45,34.17,77.58,9.41,2.68
317,Nome,100,US,1584327078,98,64.5,-165.41,30.61,7.76
318,Boda,100,CF,1584327417,28,4.32,17.47,72.81,3.33
319,Stokmarknes,75,NO,1584327417,79,68.56,14.91,28.0,5.82
320,Port Hardy,5,CA,1584326915,48,50.7,-127.42,41.0,4.7
321,Krasnoarmeyskoye,99,RU,1584327418,79,52.72,50.03,26.8,15.59
322,Baikunthpur,0,IN,1584327298,50,23.25,82.55,72.59,5.03
323,Kadirli,99,TR,1584327418,88,37.37,36.1,60.01,1.61
324,Puerto Escondido,75,MX,1584327203,78,15.85,-97.07,82.4,5.82
325,Pundaguitan,30,PH,1584327418,74,6.37,126.17,81.14,8.99
326,Marathon,1,US,1584327418,74,44.9,-89.77,30.2,5.82
327,Henties Bay,0,NA,1584327049,94,-22.12,14.28,61.0,2.71
328,Ixtapa,20,MX,1584327026,78,20.7,-105.2,75.2,3.36
329,Cayenne,100,GF,1584327064,88,4.93,-52.33,77.0,1.12
330,Black River,20,JM,1584327418,61,18.03,-77.85,78.8,8.05
331,Port Macquarie,40,AU,1584327418,83,-31.43,152.92,73.99,5.82
332,Lompoc,90,US,1584327209,93,34.64,-120.46,54.0,11.41
333,Iskateley,100,RU,1584327418,93,67.68,53.15,19.98,19.93
334,Taltal,0,CL,1584327418,89,-25.4,-70.48,57.81,3.4
335,Jega,99,NG,1584327418,9,12.22,4.38,75.25,9.04
336,Pacific Grove,75,US,1584326614,87,36.62,-121.92,53.01,17.11
337,Tual,3,ID,1584327057,78,-5.67,132.75,81.9,9.51
338,Juneau,20,US,1584327073,45,58.3,-134.42,44.6,1.95
339,Ayna,92,PE,1584327418,81,-12.65,-73.92,62.24,4.54
340,Garissa,100,KE,1584327418,73,-0.45,39.64,79.3,5.59
341,Praia da Vitória,20,PT,1584327101,87,38.73,-27.07,57.2,10.38
342,Anáhuac,100,MX,1584327418,51,27.23,-100.15,77.09,21.59
343,Constitución,0,CL,1584327053,80,-35.33,-72.42,53.01,5.91
344,Usinsk,100,RU,1584327419,92,65.99,57.53,12.22,22.26
345,Lakes Entrance,0,AU,1584327419,62,-37.88,147.98,69.01,7.0
346,Esperance,75,AU,1584326919,65,-33.87,121.9,77.0,8.05
347,Impfondo,100,CG,1584327419,81,1.64,18.07,75.06,2.17
348,Sibu,75,MY,1584327419,74,2.3,111.82,84.2,8.05
349,Ponta Delgada,20,PT,1584327419,81,37.73,-25.67,50.0,3.36
350,Camacha,40,PT,1584327419,82,33.08,-16.33,62.6,18.34
351,Venado Tuerto,64,AR,1584327419,85,-33.75,-61.97,57.0,0.83
352,Ahipara,100,NZ,1584327093,74,-35.17,173.17,66.85,12.26
353,Kirakira,100,SB,1584327100,75,-10.45,161.92,82.31,6.67
354,Tautira,40,PF,1584327419,62,-17.73,-149.15,87.8,11.41
355,Kenora,90,CA,1584327419,85,49.82,-94.43,24.8,6.93
356,Muros,75,ES,1584327044,100,42.78,-9.06,46.99,3.36
357,Cortland,1,US,1584327419,45,42.6,-76.08,28.0,3.36
358,Evensk,100,RU,1584327086,92,61.95,159.23,15.76,15.61
359,Salekhard,95,RU,1584327111,93,66.53,66.6,-6.45,7.49
360,Okhotsk,21,RU,1584326989,78,59.38,143.3,10.83,13.06
361,Ketchikan,1,US,1584327419,60,55.34,-131.65,44.6,16.11
362,Bloemhof,6,ZA,1584327419,40,-27.65,25.61,64.9,9.17
363,Tignère,40,CM,1584327419,18,7.37,12.65,65.98,3.38
364,Bobcaygeon,1,CA,1584327420,68,44.55,-78.54,26.6,2.24
365,Sambava,100,MG,1584327197,88,-14.27,50.17,72.14,1.83
366,Havøysund,100,NO,1584327053,91,71.0,24.66,23.27,5.21
367,Nekrasovka,0,RU,1584327420,21,48.35,135.23,28.4,20.13
368,Bonavista,0,CA,1584327043,80,48.65,-53.11,24.01,5.99
369,Atambua,99,ID,1584327420,66,-9.11,124.89,83.23,5.7
370,Touros,75,BR,1584327000,100,-5.2,-35.46,75.2,4.7
371,Jalu,0,LY,1584327420,26,29.03,21.55,64.78,6.44
372,Kiryat Gat,37,IL,1584327002,93,31.61,34.76,57.0,2.24
373,Turaif,85,SA,1584327420,100,31.67,38.66,46.4,3.36
374,Esim,50,GH,1584327420,92,4.87,-2.24,78.22,4.56
375,Binga,100,ZW,1584327420,83,-17.62,27.34,75.4,4.99
376,Taipu,75,BR,1584327420,100,-5.62,-35.6,77.0,4.7
377,Belmonte,40,BR,1584327072,88,-15.86,-38.88,77.0,3.36
378,Fairview,1,US,1584327188,36,40.81,-74.0,46.99,3.36
379,Verkhovazh'ye,50,RU,1584327420,83,60.75,42.05,17.8,10.51
380,Māngrol,100,IN,1584327306,41,21.12,70.12,77.02,20.4
381,Havre-St-Pierre,90,CA,1584327420,47,50.23,-63.6,15.8,17.22
382,Arman',100,RU,1584327420,65,59.7,150.17,14.11,9.44
383,Alice Springs,0,AU,1584327030,13,-23.7,133.88,82.4,10.29
384,Senekal,0,ZA,1584327421,86,-28.32,27.62,58.3,12.21
385,Nieves,75,PH,1584327421,66,15.33,120.95,84.2,6.93
386,Cairns,40,AU,1584327421,45,-16.92,145.77,87.8,9.17
387,Santa Cruz,16,MA,1584327330,87,30.42,-9.6,57.2,4.7
388,Krasnosel'kup,100,RU,1584327006,79,65.7,82.47,-5.3,13.82
389,Egvekinot,99,RU,1584327180,96,66.32,-179.17,11.19,3.47
390,The Pas,90,CA,1584327145,85,53.83,-101.25,14.0,6.93
391,Ürümqi,0,CN,1584327421,48,43.8,87.6,42.8,2.24
392,Djibouti,75,DJ,1584327421,74,11.5,42.5,80.6,3.36
393,Butembo,0,CD,1584327421,91,0.15,29.28,62.1,3.22
394,Udachny,90,RU,1584327421,79,66.42,112.4,24.8,6.71
395,Mâncio Lima,90,BR,1584327421,100,-7.61,-72.9,75.2,4.7
396,Anshun,100,CN,1584327421,87,26.25,105.93,57.31,6.02
397,Djambala,41,CG,1584327421,89,-2.54,14.75,71.47,5.59
398,Joshīmath,0,IN,1584327421,23,30.57,79.57,40.91,6.58
399,Mocajuba,100,BR,1584327421,99,-2.58,-49.51,72.86,2.57
400,Mayo,1,US,1584327197,93,38.89,-76.51,44.6,2.28
401,Chicama,40,PE,1584327421,83,-7.84,-79.15,73.4,8.05
402,Russell,40,US,1584327421,72,32.35,-85.2,73.4,5.08
403,Hambantota,24,LK,1584327422,83,6.12,81.12,80.6,4.7
404,Farmington,20,US,1584327185,24,36.73,-108.22,57.2,6.93
405,Los Llanos de Aridane,20,ES,1584327062,68,28.66,-17.92,64.4,13.87
406,Brae,5,GB,1584327069,53,60.4,-1.35,39.2,5.82
407,Boz,2,FR,1584327422,84,46.41,4.91,48.99,2.24
408,Yumen,68,CN,1584327008,18,40.28,97.2,44.08,1.14
409,Tsimmerbude,100,RU,1584327422,41,54.67,20.13,39.2,13.42
410,Srednekolymsk,10,RU,1584327052,86,67.45,153.68,-2.97,4.03
411,Krasnoarmeysk,100,RU,1584327422,77,51.02,45.7,26.01,8.99
412,Kavieng,100,PG,1584326908,72,-2.57,150.8,83.88,9.55
413,Pochutla,75,MX,1584327085,78,15.74,-96.47,82.4,5.82
414,Jaca,90,ES,1584327422,100,42.57,-0.55,48.99,12.75
415,Cedar Rapids,90,US,1584327422,74,42.01,-91.64,35.6,4.7
416,Tessalit,73,ML,1584327422,16,20.2,1.01,72.41,4.23
417,Neiafu,75,TO,1584327422,79,-18.65,-173.98,86.0,5.82
418,Naze,40,JP,1584327014,42,28.37,129.48,64.4,18.34
419,Aswān,0,EG,1584327422,52,24.09,32.91,64.4,11.41
420,Santa Inês,100,BR,1584327422,98,-3.67,-45.38,73.27,4.54
421,Phan Thiet,6,VN,1584327371,43,10.93,108.1,88.32,9.69
422,Mahajanga,20,MG,1584327256,94,-15.72,46.32,77.0,3.36
423,Rocha,26,UY,1584327015,91,-34.48,-54.33,53.87,2.37
424,Mangan,0,IN,1584327423,27,27.52,88.53,54.63,0.63
425,Keelung,75,TW,1584327423,38,25.13,121.74,73.4,23.04
426,Ancud,1,CL,1584326955,81,-41.87,-73.82,53.6,5.82
427,Invergordon,13,GB,1584327423,92,57.69,-4.17,30.2,5.84
428,Zhoucheng,100,CN,1584327423,43,35.91,116.31,56.19,15.01
429,Supe,100,PE,1584327423,79,-10.8,-77.73,71.74,4.25
430,Wahpeton,90,US,1584327423,87,46.27,-96.61,32.0,11.41
431,Gore,97,NZ,1584327423,69,-46.1,168.94,55.0,15.99
432,Stephenville,90,US,1584327126,93,32.22,-98.2,57.2,4.7
433,São João da Barra,0,BR,1584327102,87,-21.64,-41.05,77.74,12.17
434,Pampa,90,US,1584327423,100,35.54,-100.96,42.8,10.29
435,Nishihara,0,JP,1584327423,40,26.18,127.76,69.8,17.22
436,Luena,73,AO,1584327423,97,-11.78,19.92,63.09,3.69
437,Cap Malheureux,40,MU,1584327003,88,-19.98,57.61,75.2,2.24
438,Villa Unión,75,MX,1584327423,53,23.2,-106.23,73.4,3.33
439,Port Keats,0,AU,1584327092,41,-14.25,129.55,94.44,3.98
440,Bathsheba,75,BB,1584327077,83,13.22,-59.52,75.2,2.24
441,Zhangaözen,88,KZ,1584327424,57,43.3,52.8,44.42,12.21
442,Sola,100,VU,1584327076,77,-13.88,167.55,84.47,23.49
443,Korla,96,CN,1584327023,21,41.76,86.15,39.74,3.83
444,Champasak,40,LA,1584327424,58,14.75,106.0,84.2,2.24
445,Novomikhaylovskiy,100,RU,1584327424,57,44.26,38.86,28.81,10.65
446,Xichang,0,CN,1584327424,44,27.9,102.26,54.79,10.09
447,Hueytamalco,100,MX,1584327424,98,19.95,-97.27,64.33,1.45
448,Valparaíso,0,CL,1584327102,87,-33.04,-71.63,57.2,3.36
449,Ambilobe,100,MG,1584327203,90,-13.2,49.05,77.67,3.62
450,Banyo,96,CM,1584327424,26,6.75,11.82,61.39,2.73
451,Dzilam González,0,MX,1584327424,83,21.28,-88.93,77.31,20.74
452,Mugur-Aksy,100,RU,1584327424,63,50.35,90.5,24.06,7.07
453,Ţahţā,0,EG,1584327424,63,26.77,31.5,60.8,4.7
454,São João do Paraíso,100,BR,1584327243,98,-15.31,-42.01,64.04,3.13
455,Fengxian,100,CN,1584327424,46,34.7,116.59,59.0,1.01
456,Serebryansk,75,KZ,1584327424,69,49.69,83.29,37.4,4.47
457,Rawson,79,AR,1584327035,66,-43.3,-65.1,64.27,20.18
458,Padang,25,ID,1584326878,56,-0.95,100.35,84.29,1.95
459,Zhigansk,100,RU,1584327424,93,66.77,123.37,4.03,25.43
460,Sānand,40,IN,1584327425,40,22.98,72.38,68.0,8.05
461,Panabá,0,MX,1584327425,79,21.28,-88.27,76.91,10.83
462,Ponta do Sol,40,PT,1584327003,67,32.67,-17.1,62.6,11.41
463,Kandrian,100,PG,1584327425,55,-6.22,149.55,88.59,8.25
464,Macomb,90,US,1584327142,86,40.46,-90.67,37.4,6.93
465,Lorengau,100,PG,1584327011,72,-2.02,147.27,84.16,6.6
466,Khor,0,RU,1584327425,90,47.89,134.95,17.15,11.41
467,Chodavaram,20,IN,1584327425,78,17.83,82.95,80.6,2.24
468,Harper,100,LR,1584327425,95,4.38,-7.72,74.95,1.74
469,Vardø,100,NO,1584327425,57,70.37,31.11,26.46,5.1
470,Amapá,100,BR,1584327425,99,1.0,-52.0,69.66,1.57
471,Copiapó,0,CL,1584327425,82,-27.37,-70.33,62.6,2.24
472,Halifax,90,CA,1584326710,58,44.65,-63.57,30.0,2.24
473,Caucayá,95,CO,1584327425,83,-0.19,-74.78,74.86,1.77
474,Pauini,100,BR,1584327425,98,-7.71,-66.98,75.15,3.13
475,Adré,35,TD,1584327103,21,13.47,22.2,66.42,10.36
476,Hamilton,90,US,1584327425,86,39.18,-84.53,42.8,3.47
477,Waipawa,100,NZ,1584327055,38,-41.41,175.52,73.4,5.82
478,Lossiemouth,0,GB,1584327425,92,57.72,-3.28,33.01,4.36
479,Watertown,1,US,1584327426,80,42.37,-71.18,36.0,3.36
480,Bereda,40,ES,1584327060,66,43.27,-7.54,50.0,12.75
481,Brus Laguna,0,HN,1584327426,94,15.75,-84.48,72.36,2.57
482,Ushtobe,90,KZ,1584327426,37,45.25,77.98,49.66,5.41
483,Aksay,0,RU,1584327426,73,47.26,39.87,19.4,6.71
484,Ondangwa,94,NA,1584327426,73,-17.92,15.95,71.55,4.5
485,Boa Vista,69,BR,1584326927,58,2.82,-60.67,84.2,9.17
486,Severo-Kuril'sk,97,RU,1584326932,95,50.68,156.12,24.84,46.73
487,Micheweni,97,TZ,1584327426,77,-4.97,39.83,84.11,9.98
488,Ryde,0,GB,1584327426,93,50.73,-1.16,42.01,3.36
489,Qingyang,7,CN,1584327426,37,37.5,121.26,44.69,10.07
490,Surakarta,20,ID,1584327426,70,-7.56,110.83,86.0,5.82
491,Mahon,99,ES,1584327197,87,39.89,4.27,55.4,13.87
492,Makakilo City,75,US,1584327379,78,21.35,-158.09,78.8,9.17
493,Dul'durga,14,RU,1584327426,68,50.68,113.59,33.66,19.75
494,Nouadhibou,0,MR,1584327066,77,20.93,-17.03,62.6,18.34
495,Menongue,100,AO,1584327081,97,-14.66,17.69,63.61,4.21
496,Tak Bai,40,TH,1584327427,70,6.26,102.05,86.0,13.87
497,Vallenar,5,CL,1584327427,92,-28.57,-70.76,57.27,1.63
498,Kandé,17,TG,1584327427,17,9.96,1.04,76.87,3.58
499,Ierapetra,75,GR,1584327427,87,35.01,25.74,60.01,11.41
500,Oriximiná,98,BR,1584327100,91,-1.77,-55.87,72.9,5.32
501,Marsh Harbour,0,BS,1584327427,73,26.54,-77.06,72.45,10.94
502,Mwinilunga,100,ZM,1584327427,99,-11.74,24.43,63.75,4.43
503,Kemijärvi,100,FI,1584327427,98,66.71,27.43,32.11,8.66
504,Yeppoon,32,AU,1584327427,48,-23.13,150.73,82.4,10.29
505,Shimoda,75,JP,1584327061,53,34.67,138.95,53.6,8.05
506,San Quintín,0,MX,1584327183,77,30.48,-115.95,59.22,12.15
507,Songjianghe,0,CN,1584327427,52,42.19,127.48,27.12,8.95
508,Gloversville,1,US,1584327427,50,43.05,-74.34,28.4,11.41
509,Santa Ana,90,US,1584327221,62,33.75,-117.87,60.8,6.93
510,Fort Myers Beach,1,US,1584327278,94,26.45,-81.95,75.2,4.7
511,Tete,10,MZ,1584327427,83,-16.16,33.59,71.6,2.84
512,Half Moon Bay,90,US,1584327018,70,37.46,-122.43,51.8,3.36
513,Barretos,100,BR,1584327427,94,-20.56,-48.57,71.06,4.0
514,San Javier,40,ES,1584327427,93,37.81,-0.84,59.0,3.36
515,Lerwick,9,GB,1584327326,64,60.15,-1.15,39.2,6.93
516,Hay River,75,CA,1584327428,67,60.82,-115.8,21.2,10.29
517,Aasiaat,100,GL,1584327074,97,68.71,-52.87,-14.04,12.39
518,Waycross,20,US,1584327428,60,31.21,-82.35,71.6,4.7
519,Las Palmas,20,ES,1584327428,68,28.42,-14.01,64.4,13.87
520,Manokwari,84,ID,1584327428,70,-0.87,134.08,79.81,5.59
521,Bilibino,66,RU,1584327428,82,68.05,166.44,4.89,3.49
522,Qalyub,40,EG,1584327428,82,30.18,31.21,62.6,10.29
523,Abu Samrah,2,SY,1584327428,86,35.3,37.18,51.85,4.85
524,Soe,42,ID,1584327060,58,-9.86,124.28,85.14,4.56
525,Kattivākkam,40,IN,1584326876,83,13.22,80.32,84.0,2.24
526,Kathmandu,20,NP,1584327386,62,27.72,85.32,55.4,2.24
527,Jiangyin,53,CN,1584327428,44,31.93,120.31,57.0,9.64
